{
	"10 PARK PLAZA ALPHARETTA GA 30009": {
		"location_name": "ALPHARETTA BRANCH LIBRARY",
		"location_type": "ROOFTOP",
		"original_address": "10 PARK PLAZA ALPHARETTA, GA 30009",
		"formatted_address": "10 Park Plaza, Alpharetta, GA 30009, USA",
		"lat": 34.0739169,
		"lng": -84.2922893
	},
	"269 BUCKHEAD AVENUE NE ATLANTA GA 30305": {
		"location_name": "BUCKHEAD LIBRARY",
		"location_type": "ROOFTOP",
		"original_address": "269 BUCKHEAD AVENUE NE ATLANTA, GA 30305",
		"formatted_address": "269 Buckhead Ave NE, Atlanta, GA 30305, USA",
		"lat": 33.8376168,
		"lng": -84.3793961
	},
	"3201 MARTIN LUTHER KING JR DR SW ATLANTA GA 30311": {
		"location_name": "C.T MARTIN NATATORIUM AND RECREATION CENTER",
		"location_type": "ROOFTOP",
		"original_address": "3201 MARTIN LUTHER KING JR. DR., S.W. ATLANTA, GA 30311",
		"formatted_address": "3201 M.L.K. Jr Dr SW, Atlanta, GA 30311, USA",
		"lat": 33.7541215,
		"lng": -84.4918471
	},
	"140 WEST WIEUCA ROAD ATLANTA GA 30342": {
		"location_name": "CHASTAIN PARK GYMNASIUM",
		"location_type": "RANGE_INTERPOLATED/ROOFTOP",
		"corrected": true,
		"original_address": "140 WEST WIEUCA ROAD ATLANTA, GA 30342",
		"formatted_address": "140 W Wieuca Rd NE, Atlanta, GA 30342, USA",
		"lat": 33.8839773,
		"lng": -84.4164677
	},
	"3647 MAIN STREET COLLEGE PARK GA 30337": {
		"location_name": "COLLEGE PARK LIBRARY",
		"location_type": "ROOFTOP",
		"original_address": "3647 MAIN STREET COLLEGE PARK, GA 30337",
		"formatted_address": "3647 Main St, College Park, GA 30337, USA",
		"lat": 33.6556682,
		"lng": -84.4496948
	},
	"2757 MAIN EAST POINT GA 30344": {
		"location_name": "EAST POINT LIBRARY",
		"location_type": "ROOFTOP",
		"original_address": "2757 MAIN EAST POINT, GA 30344",
		"formatted_address": "2757 Main St, East Point, GA 30344, USA",
		"lat": 33.6803507,
		"lng": -84.4406947
	},
	"2301 HOLCOMB BRIDGE ROAD ROSWELL GA 30076": {
		"location_name": "EAST ROSWELL LIBRARY",
		"location_type": "ROOFTOP",
		"original_address": "2301 HOLCOMB BRIDGE ROAD ROSWELL, GA 30076",
		"formatted_address": "2301 Holcomb Bridge Rd, Roswell, GA 30076, USA",
		"lat": 34.0029406,
		"lng": -84.29448889999999
	},
	"5285 LAKESIDE DR UNION CITY GA 30291": {
		"location_name": "ETRIS COMMUNITY RECREATION CENTER",
		"location_type": "ROOFTOP",
		"original_address": "5285 LAKESIDE DR UNION CITY, GA 30291",
		"formatted_address": "5285 Lakeside Dr, Union City, GA 30291, USA",
		"lat": 33.587524,
		"lng": -84.5572347
	},
	"3665 CASCADE ROAD ATLANTA GA 30331": {
		"location_name": "EVELYN G. LOWERY LIBRARY @ CASCADE",
		"location_type": "ROOFTOP",
		"original_address": "3665 CASCADE ROAD ATLANTA, GA 30331",
		"formatted_address": "3665 Cascade Rd, Atlanta, GA 30331, USA",
		"lat": 33.7246153,
		"lng": -84.50673700000002
	},
	"4055 FLAT SHOALS ROAD UNION GA 30291": {
		"location_name": "GLADYS S. DENNARD LIBRARY AT SOUTH FULTON",
		"location_type": "ROOFTOP",
		"original_address": "4055 FLAT SHOALS ROAD UNION, GA 30291",
		"formatted_address": "4055 Flat Shoals Rd, Union City, GA 30291, USA",
		"lat": 33.5878106,
		"lng": -84.5195155
	},
	"8100 HOLCOMB BRIDGE ROAD ALPHARETTA GA 30022": {
		"location_name": "JOHNS CREEK ENVIRONMENTAL CAMPUS",
		"location_type": "ROOFTOP",
		"original_address": "8100 HOLCOMB BRIDGE ROAD ALPHARETTA, GA 30022",
		"formatted_address": "8100 Holcomb Bridge Rd, Alpharetta, GA 30022, USA",
		"lat": 33.9766461,
		"lng": -84.2658646
	},
	"1 AMB DRIVE ATLANTA GA 30313": {
		"location_name": "MERCEDES BENZ",
		"location_type": "ROOFTOP",
		"original_address": "1 AMB DRIVE ATLANTA, GA 30313",
		"formatted_address": "1 AMB Dr NW, Atlanta, GA 30313, USA",
		"lat": 33.7554029,
		"lng": -84.4008922
	},
	"1332 METROPOLITAN PARKWAY ATLANTA GA 30310": {
		"location_name": "METROPOLITAN LIBRARY",
		"location_type": "ROOFTOP",
		"original_address": "1332 METROPOLITAN PARKWAY ATLANTA, GA 30310",
		"formatted_address": "1332 Metropolitan Pkwy SW, Atlanta, GA 30310, USA",
		"lat": 33.7187799,
		"lng": -84.4073494
	},
	"855 MAYFIELD ROAD MILTON GA 30009": {
		"location_name": "MILTON LIBRARY",
		"location_type": "ROOFTOP",
		"original_address": "855 MAYFIELD ROAD MILTON, GA 30009",
		"formatted_address": "855 Mayfield Rd, Alpharetta, GA 30009, USA",
		"lat": 34.0901142,
		"lng": -84.33627179999999
	},
	"66 BROOKS DRIVE FAIRBURN GA 30213": {
		"location_name": "NEW BEGINNINGS SENIOR CENTER",
		"location_type": "ROOFTOP",
		"original_address": "66 BROOKS  DRIVE FAIRBURN, GA 30213",
		"formatted_address": "66 Brooks Dr, Fairburn, GA 30213, USA",
		"lat": 33.5609157,
		"lng": -84.5871864
	},
	"7741 ROSWELL RD NE SANDY SPRINGS GA 30350": {
		"location_name": "NORTH FULTON ANNEX",
		"location_type": "ROOFTOP",
		"original_address": "7741 ROSWELL RD NE SANDY SPRINGS, GA 30350",
		"formatted_address": "7741 Roswell Rd NE, Sandy Springs, GA 30350, USA",
		"lat": 33.9658857,
		"lng": -84.3626524
	},
	"9500 SPRUILL ROAD JOHNS CREEK GA 30022": {
		"location_name": "NORTH/EAST SPRUILL OAKS LIBRARY",
		"location_type": "RANGE_INTERPOLATED/ROOFTOP",
		"original_address": "9500 SPRUILL ROAD JOHNS CREEK, GA 30022",
		"formatted_address": "9500 Spruill Rd, Johns Creek, GA 30022, USA",
		"lat": 34.01417,
		"lng": -84.2264042,
		"corrected": true
	},
	"3295 NORTHSIDE PARKWAY ATLANTA GA 30327": {
		"location_name": "NORTHSIDE BRANCH LIBRARY",
		"location_type": "ROOFTOP",
		"original_address": "3295 NORTHSIDE PARKWAY ATLANTA, GA 30327",
		"formatted_address": "3295 Northside Pkwy NW, Atlanta, GA 30327, USA",
		"lat": 33.845106,
		"lng": -84.4253497
	},
	"2489 PERRY BOULEVARD ATLANTA GA 30318": {
		"location_name": "NORTHWEST BRANCH AT SCOTTS CROSSING",
		"location_type": "ROOFTOP",
		"original_address": "2489 PERRY BOULEVARD ATLANTA, GA 30318",
		"formatted_address": "2489 Perry Blvd NW, Atlanta, GA 30318, USA",
		"lat": 33.8052817,
		"lng": -84.4699555
	},
	"5090 ABBOTTS BRIDGE ROAD ALPHARETTA GA 30005": {
		"location_name": "OCEE LIBRARY",
		"location_type": "ROOFTOP",
		"original_address": "5090 ABBOTTS BRIDGE ROAD ALPHARETTA, GA 30005",
		"formatted_address": "5090 Abbotts Bridge Rd, Johns Creek, GA 30005, USA",
		"lat": 34.0646462,
		"lng": -84.2096406
	},
	"9111 CASCADE PALMETTO HWY PALMETTO GA 30268": {
		"location_name": "PALMETTO LIBRARY",
		"location_type": "ROOFTOP",
		"original_address": "9111 CASCADE PALMETTO HWY. PALMETTO, GA 30268",
		"formatted_address": "9111 Cascade Palmetto Hwy, Palmetto, GA 30268, USA",
		"lat": 33.5305862,
		"lng": -84.6643812
	},
	"3125 OLD ALABAMA ROAD JOHNS CREEK GA 30022": {
		"location_name": "PARK PLACE AT NEWTOWN SCHOOL",
		"location_type": "ROOFTOP",
		"original_address": "3125 OLD ALABAMA ROAD JOHNS CREEK, GA 30022",
		"formatted_address": "3125 Old Alabama Rd, Johns Creek, GA 30022, USA",
		"lat": 34.0208269,
		"lng": -84.2685781
	},
	"980 PONCE DE LEON AVE NE GA 30306": {
		"location_name": "PONCE DE LEON LIBRARY",
		"location_type": "ROOFTOP",
		"original_address": "980 PONCE DE LEON AVE., NE , GA 30306",
		"formatted_address": "980 Ponce De Leon Ave NE, Atlanta, GA 30306, USA",
		"lat": 33.7740557,
		"lng": -84.3551871
	},
	"115 NORCROSS STREET ROSWELL GA 30075": {
		"location_name": "ROSWELL BRANCH LIBRARY",
		"location_type": "ROOFTOP",
		"original_address": "115 NORCROSS STREET ROSWELL, GA 30075",
		"formatted_address": "115 Norcross St, Roswell, GA 30075, USA",
		"lat": 34.0249952,
		"lng": -84.3579018
	},
	"395 MOUNT VERNON HIGHWAY NE SANDY SPRINGS GA 30328": {
		"location_name": "SANDY SPRINGS BRANCH LIBRARY",
		"location_type": "ROOFTOP",
		"original_address": "395 MOUNT VERNON HIGHWAY, NE SANDY SPRINGS, GA 30328",
		"formatted_address": "395 Mount Vernon Hwy NE, Atlanta, GA 30328, USA",
		"lat": 33.924002,
		"lng": -84.37442
	},
	"5600 STONEWALL TELL ROAD COLLEGE PARK GA 30349": {
		"location_name": "SOUTH FULTON ANNEX",
		"location_type": "ROOFTOP",
		"original_address": "5600 STONEWALL TELL ROAD COLLEGE PARK, GA 30349",
		"formatted_address": "5600 Stonewall Tell Rd, College Park, GA 30349, USA",
		"lat": 33.6014156,
		"lng": -84.5498808
	},
	"915 NEW HOPE ROAD SW ATLANTA GA 30331": {
		"location_name": "SOUTHWEST ARTS CENTER",
		"location_type": "ROOFTOP",
		"original_address": "915 NEW HOPE ROAD, SW ATLANTA, GA 30331",
		"formatted_address": "915 New Hope Rd SW, Atlanta, GA 30331, USA",
		"lat": 33.7296204,
		"lng": -84.54150790000001
	},
	"1 STATE FARM ATLANTA GA 30303": {
		"location_name": "STATE FARM ARENA",
		"location_type": "ROOFTOP",
		"original_address": "1 STATE FARM ATLANTA, GA 30303",
		"formatted_address": "1 State Farm Dr, Atlanta, GA 30303, USA",
		"lat": 33.7572331,
		"lng": -84.39634029999999
	},
	"3100 ENON ROAD ATLANTA GA 30331": {
		"location_name": "WOLF CREEK LIBRARY",
		"location_type": "ROOFTOP",
		"original_address": "3100 ENON ROAD ATLANTA, GA 30331",
		"formatted_address": "3100 Enon Rd, Atlanta, GA 30331, USA",
		"lat": 33.6726866,
		"lng": -84.5741946
	},
	"2231 CAMPBELLTON ROAD ATLANTA GA 30331": {
		"location_name": "ADAMS PARK LIBRARY",
		"location_type": "ROOFTOP",
		"original_address": "2231 CAMPBELLTON ROAD ATLANTA, GA 30331",
		"formatted_address": "2231 Campbellton Rd SW, Atlanta, GA 30311, USA",
		"lat": 33.7056988,
		"lng": -84.46168929999999
	},
	"1280 PEACHTREE STREET NE ATLANTA GA 30309": {
		"location_name": "HIGH MUSEUM OF ART",
		"location_type": "RANGE_INTERPOLATED/ROOFTOP",
		"original_address": "1280 PEACHTREE STREET NE ATLANTA, GA 30309",
		"formatted_address": "1280 Peachtree St NE, Atlanta, GA 30309, USA",
		"lat": 33.790063,
		"lng": -84.385552,
		"corrected": true
	}
}